{
  "type": "FeatureCollection",
  "crs": {
    "type": "name",
    "properties": { "name": "urn:ogc:def:crs:OGC:1.3:CRS84" }
  },
  "features": [
    {
      "type": "Feature",
      "properties": {
        "RIDER_ID": 1,
        "NAME": "DUSTIN GREEN",
        "STATE": "IL",
        "CITY": "HICKORY HILLS",
        "WORLDRANK":"3rd"
      },
      "geometry": {
        "type": "Point",
        "coordinates": [-105.35, 40.00]
      }
    },
    {
      "type": "Feature",
      "properties": {
        "RIDER_ID": 2,
        "NAME": "JASON FINN",
        "STATE": "CA",
        "CITY": "HUNTINGTON BEACH",
        "WORLDRANK":"3rd"
      },
      "geometry": {
        "type": "Point",
        "coordinates": [-105.24, 39.95]
      }
    },
    {
      "type": "Feature",
      "properties": {
        "RIDER_ID": 3,
        "NAME": "HOWARD THOMPSON",
        "STATE": "MO",
        "CITY": "HALE",
        "WORLDRANK":"3rd"
      },
      "geometry": {
        "type": "Point",
        "coordinates": [-105.26, 40.06]
      }
    },
    {
      "type": "Feature",
      "properties": {
        "RIDER_ID": 4,
        "NAME": "MAGGIE LANTZ",
        "STATE": "OH",
        "CITY": "DUBLIN",
        "WORLDRANK":"3rd"
      },
      "geometry": {
        "type": "Point",
        "coordinates": [-105.23, 40.03]
      }
    },
    {
      "type": "Feature",
      "properties": {
        "RIDER_ID": 5,
        "NAME": "LAWRENCE DURAN",
        "STATE": "FL",
        "CITY": "FORT MYERS",
        "WORLDRANK":"3rd"
      },
      "geometry": {
        "type": "Point",
        "coordinates": [-105.23, 40.04]
      }
    },
    {
      "type": "Feature",
      "properties": {
        "RIDER_ID": 6,
        "NAME": "IRENE MOLINA",
        "STATE": "AZ",
        "CITY": "TUCSON",
        "WORLDRANK":"3rd"
      },
      "geometry": {
        "type": "Point",
        "coordinates": [-105.22, 39.96]
      }
    },
    {
      "type": "Feature",
      "properties": {
        "RIDER_ID": 7,
        "NAME": "NANCY GARNER",
        "STATE": "MD",
        "CITY": "BALTIMORE",
        "WORLDRANK":"3rd"
      },
      "geometry": {
        "type": "Point",
        "coordinates": [-105.21, 39.98]
      }
    },
    {
      "type": "Feature",
      "properties": {
        "RIDER_ID": 8,
        "NAME": "JOAN BROOKS",
        "STATE": "VA",
        "CITY": "NORFOLK",
        "WORLDRANK":"3rd"
      },
      "geometry": {
        "type": "Point",
        "coordinates": [-105.24, 39.98]
      }
    },
    {
      "type": "Feature",
      "properties": {
        "RIDER_ID": 9,
        "NAME": "TARA TAYLOR",
        "STATE": "MN",
        "CITY": "MINEAPOLIS",
        "WORLDRANK":"3rd"
      },
      "geometry": {
        "type": "Point",
        "coordinates": [-105.25, 40.00]
      }
    },
    {
      "type": "Feature",
      "properties": {
        "RIDER_ID": 10,
        "NAME": "ALEJANDRO SMITH",
        "STATE": "ME",
        "CITY": "SCRARBOROUGH",
        "WORLDRANK":"3rd"
      },
      "geometry": {
        "type": "Point",
        "coordinates": [-105.26, 40.02]
      }
    },
    {
      "type": "Feature",
      "properties": {
        "RIDER_ID": 11,
        "NAME": "TRICIA RENSHAW",
        "STATE": "CT",
        "CITY": "MYSTIC",
        "WORLDRANK":"3rd"
      },
      "geometry": {
        "type": "Point",
        "coordinates": [-105.30, 40.02]
      }
    },
    {
      "type": "Feature",
      "properties": {
        "RIDER_ID": 12,
        "NAME": "TRAVIS COOK",
        "STATE": "WI",
        "CITY": "TWIN LAKES",
        "WORLDRANK":"3rd"
      },
      "geometry": {
        "type": "Point",
        "coordinates": [-105.20, 40.01]
      }
    },
    {
      "type": "Feature",
      "properties": {
        "RIDER_ID": 13,
        "NAME": "RODGERS WAYNE",
        "STATE": "NJ",
        "CITY": "WAYNE",
        "WORLDRANK":"3rd"
      },
      "geometry": {
        "type": "Point",
        "coordinates": [-105.25, 39.99]
      }
    },
    {
      "type": "Feature",
      "properties": {
        "RIDER_ID": 14,
        "NAME": "MATTHEW GREGSON",
        "STATE": "MO",
        "CITY": "BRASHEAR",
        "WORLDRANK":"3rd"
      },
      "geometry": {
        "type": "Point",
        "coordinates": [-105.29, 40.01]
      }
    },
    {
      "type": "Feature",
      "properties": {
        "RIDER_ID": 15,
        "NAME": "KATIE DUNLAP",
        "STATE": "VA",
        "CITY": "MARION",
        "WORLDRANK":"3rd"
      },
      "geometry": {
        "type": "Point",
        "coordinates": [-105.27, 39.97]
      }
    },
    {
      "type": "Feature",
      "properties": {
        "RIDER_ID": 16,
        "NAME": "LEO HOWARD",
        "STATE": "TX",
        "CITY": "DALLAS",
        "WORLDRANK":"3rd"
      },
      "geometry": {
        "type": "Point",
        "coordinates": [-105.33, 39.97]
      }
    },
    {
      "type": "Feature",
      "properties": {
        "RIDER_ID": 17,
        "NAME": "MARIA BAIDSEN",
        "STATE": "NC",
        "CITY": "RALEIGH",
        "WORLDRANK":"3rd"
      },
      "geometry": {
        "type": "Point",
        "coordinates": [-105.29, 40.00]
      }
    },
    {
      "type": "Feature",
      "properties": {
        "RIDER_ID": 18,
        "NAME": "SANDY TOWNSEND",
        "STATE": "PA",
        "CITY": "NEWPORT",
        "WORLDRANK":"3rd"
      },
      "geometry": {
        "type": "Point",
        "coordinates": [-105.30, 40.05]
      }
    },
    {
      "type": "Feature",
      "properties": {
        "RIDER_ID": 19,
        "NAME": "MELINDA STEPHENSON",
        "STATE": "HI",
        "CITY": "KAHULUI",
        "WORLDRANK":"3rd"
      },
      "geometry": {
        "type": "Point",
        "coordinates": [-105.30, 39.99]
      }
    },
    {
      "type": "Feature",
      "properties": {
        "RIDER_ID": 20,
        "NAME": "JASON NICHOLS",
        "STATE": "VA",
        "CITY": "ALEXANDRIA",
        "WORLDRANK":"3rd"
      },
      "geometry": {
        "type": "Point",
        "coordinates": [-105.32, 40.01]
      }
    }
    
    
  ]
}
    